[
  {
    "id": "SIG-001",
    "type": "water_outage",
    "title": "Critical Water Supply Failure",
    "severity": 9,
    "urgency": 9,
    "affected_population": 12500,
    "zone": "Sector 7 - Residential",
    "source": "citizen_report",
    "latitude": 28.6139,
    "longitude": 77.2090,
    "status": "active",
    "confidence": 0.95,
    "downstream_risk": "Heatstroke risk during heatwave - vulnerable elderly population"
  },
  {
    "id": "SIG-002",
    "type": "road_flooding",
    "title": "Main Road Underpass Flooding",
    "severity": 8,
    "urgency": 8,
    "affected_population": 8200,
    "zone": "Sector 3 - Commercial",
    "source": "citizen_report",
    "latitude": 28.6200,
    "longitude": 77.2150,
    "status": "active",
    "confidence": 0.90,
    "downstream_risk": "Traffic gridlock affecting emergency vehicle access"
  },
  {
    "id": "SIG-003",
    "type": "waste_pileup",
    "title": "Overflowing Waste Collection Point",
    "severity": 4,
    "urgency": 3,
    "affected_population": 1500,
    "zone": "Sector 5 - Mixed Use",
    "source": "citizen_report",
    "latitude": 28.6100,
    "longitude": 77.2050,
    "status": "active",
    "confidence": 0.85,
    "downstream_risk": "Odor and pest risk in residential area"
  },
  {
    "id": "SIG-004",
    "type": "clinic_stock_shortage",
    "title": "Clinic Medicine Stock Critical",
    "severity": 7,
    "urgency": 8,
    "affected_population": 3200,
    "zone": "Sector 2 - Healthcare Zone",
    "source": "facility_feed",
    "latitude": 28.6180,
    "longitude": 77.2120,
    "status": "active",
    "confidence": 0.92,
    "downstream_risk": "Patient safety risk - essential medicines depleted"
  },
  {
    "id": "SIG-005",
    "type": "heatwave_alert",
    "title": "Extreme Heat Advisory Active",
    "severity": 9,
    "urgency": 9,
    "affected_population": 25000,
    "zone": "All Zones",
    "source": "weather_feed",
    "latitude": 28.6150,
    "longitude": 77.2100,
    "status": "active",
    "confidence": 0.98,
    "downstream_risk": "Heatstroke and dehydration risk for outdoor workers"
  }
]
